     2.10           OBSERVATION DATA    G (GPS)             RINEX VERSION / TYPE
DAT2RINW 3.10 001   ±èÀÌ´ö              26AUG04 15:30:17    PGM / RUN BY / DATE 
±èÀÌ´ö              Ãø·®±â¼ú¼¾ÅÍ                            OBSERVER / AGENCY   
220320062           Unknown!            Nav 1.30 Sig 1.30   REC # / TYPE / VERS 
00000000            UNKNOWN                                 ANT # / TYPE        
----------------------------------------------------------- COMMENT             
Offset from BOTTOM OF ANTENNA to PHASE CENTER is   0.0 mm   COMMENT             
----------------------------------------------------------- COMMENT             
00620440                                                    MARKER NAME         
0062                                                        MARKER NUMBER       
 -3055110.3863  4059491.9015  3843009.3500                  APPROX POSITION XYZ 
        0.0000        0.0000        0.0000                  ANTENNA: DELTA H/E/N
*** Above antenna height is from mark to BOTTOM OF ANTENNA. COMMENT             
----------------------------------------------------------- COMMENT             
Note: The above offsets are NOT corrected.                  COMMENT             
----------------------------------------------------------- COMMENT             
     1     1     0                                          WAVELENGTH FACT L1/2
     4    L1    C1    L2    P2                              # / TYPES OF OBSERV 
    15.000                                                  INTERVAL            
  2004     2    13     2    49   30.0000000                 TIME OF FIRST OBS   
  2004     2    13     7     4   30.0000000                 TIME OF LAST OBS    
     0                                                      RCV CLOCK OFFS APPL 
    13                                                      # OF SATELLITES     
     1   209   209   209   209                              PRN / # OF OBS      
     2    85    85    85    85                              PRN / # OF OBS      
     3   121   121   121   121                              PRN / # OF OBS      
     4   525   525   525   525                              PRN / # OF OBS      
     7   836   838   838   838                              PRN / # OF OBS      
     8   529   534   481   481                              PRN / # OF OBS      
    11   905   905   905   905                              PRN / # OF OBS      
    13    95    95    95    95                              PRN / # OF OBS      
    20   904   904   904   904                              PRN / # OF OBS      
    24   112   117    97    97                              PRN / # OF OBS      
    27   343   345   320   320                              PRN / # OF OBS      
    28  1021  1021  1021  1021                              PRN / # OF OBS      
    31   559   559   559   559                              PRN / # OF OBS      
                                                            END OF HEADER       
 04  2 13  2 49 30.0000000  0  7  2  3  8 11 27 28 31
     22129.17216  23381218.82006     10304.10556  23381222.10546
     22021.03516  23372934.06306     10135.24757  23372934.59847
   -129590.21117  21271252.17207    -90253.13158  21271250.99648
   -155055.22317  20220795.31307   -109762.58558  20220792.69948
    -33733.98017  21035570.43007    -26745.51358  21035569.52048
   -234547.44916  23669104.75006   -165583.33156  23669104.09846
    -28001.13717  20602632.42207    -23009.81258  20602630.38348
 04  2 13  2 49 44.9990000  0  7  2  3  8 11 27 28 31
     29235.12106  23382571.01106     15841.12346  23382574.40146
     28948.43806  23374252.36206     15533.19047  23374253.12047
   -172442.91007  21263098.26107   -123644.84748  21263096.47648
   -206372.90207  20211029.62807   -149750.37849  20211026.89749
    -44979.14507  21033430.55007    -35507.98148  21033429.97648
   -314819.65606  23653829.47906   -228133.07247  23653829.18747
    -37468.91007  20600830.47907    -30387.31648  20600828.88648
 04  2 13  2 49 59.9990000  0  7  2  3  8 11 27 28 31
     36395.07006  23383934.28406     21420.24246  23383936.33146
     35877.23006  23375570.26906     20932.16447  23375571.80447
   -215147.91407  21254971.29207   -156921.49748  21254970.15548
   -257575.22307  20201286.35407   -189648.29948  20201283.66748
    -56105.32407  21031313.58907    -44177.75748  21031312.57348
   -395099.50805  23638552.10405   -290688.77047  23638552.69047
    -46890.12507  20599037.77607    -37728.53448  20599035.78848
 04  2 13  2 50 14.9990000  0  7  2  3  8 11 27 28 31
     43629.87506  23385310.58906     27057.64046  23385313.67946
     42828.30906  23376892.95606     26348.57346  23376894.37046
   -257680.91407  21246877.60407   -190064.09948  21246876.58548
   -308637.16407  20191569.36207   -229436.80949  20191566.66349
    -67090.71507  21029222.88607    -52737.79848  21029222.03448
   -475360.01605  23623278.81505   -353229.41147  23623280.01147
    -56242.82407  20597258.19807    -45016.36848  20597255.96048
 04  2 13  2 50 29.9990000  0  7  2  3  8 11 27 28 31
     50944.52305  23386702.44005     32757.29246  23386704.77246
     49806.81605  23378220.67505     31786.33646  23378222.22946
   -300036.59007  21238817.35407   -223068.51848  21238816.69048
   -359553.51207  20181880.39407   -269111.87548  20181878.33148
    -77930.19507  21027159.77607    -61184.17848  21027159.17948
   -555595.99605  23608010.82305   -415750.89647  23608011.68347
    -65522.00807  20595492.59707    -52246.90748  20595490.26548
 04  2 13  2 50 44.9990000  0  7  2  3  8 11 27 28 31
     58339.47704  23388109.72204     38519.49546  23388112.43746
     56813.07005  23379554.25305     37245.73946  23379555.62446
   -342214.42207  21230791.73707   -255934.35948  21230790.49948
   -410323.75007  20172219.26107   -308673.08648  20172216.71048
    -88623.62107  21025125.26107    -69516.73348  21025124.60848
   -635806.68005  23592746.87005   -478252.69147  23592747.67947
    -74727.28507  20593740.88607    -59419.87048  20593738.47248
 04  2 13  2 50 59.9990000  0  7  2  3  8 11 27 28 31
     65814.94906  23389531.92506     44344.43746  23389534.26546
     63847.59406  23380892.60406     42727.11646  23380893.70246
   -384213.80507  21222799.04207   -288661.16848  21222797.81248
   -460947.32007  20162585.77607   -348120.01648  20162583.21448
    -99170.69507  21023117.87007    -77735.25948  21023118.00748
   -715991.28105  23577488.29205   -540734.18047  23577488.63647
    -83858.24607  20592003.20607    -66534.92148  20592000.80848
 04  2 13  2 51 14.9990000  0  7  2  3  8 11 27 28 31
     73371.34406  23390970.51906     50232.46347  23390971.80847
     70910.80906  23382236.22906     48230.86346  23382237.85846
   -426034.27707  21214840.72207   -321248.54348  21214839.85848
   -511423.78507  20152980.40907   -387452.32348  20152977.76948
   -109571.27707  21021139.00307    -85839.64248  21021139.14048
   -796149.32806  23562235.25306   -603194.99247  23562235.32747
    -92914.71907  20590279.87007    -73591.92248  20590277.69848
 04  2 13  2 51 29.9990000  0  7  2  3  8 11 27 28 31
     81006.32406  23392423.73706     56181.68147  23392425.14047
     78000.39106  23383585.75306     53755.14247  23383587.12047
   -467678.12907  21206916.02607   -353698.29848  21206915.44048
   -561755.29307  20143402.65907   -426671.67348  20143399.89448
   -119827.92607  21019187.03407    -93831.84948  21019187.05048
   -876282.83205  23546985.58105   -665636.64947  23546986.56547
   -101899.06607  20588570.08907    -80592.72148  20588568.01548
 04  2 13  2 51 44.9990000  0  7  2  3  8 11 27 28 31
     88719.44906  23393890.93306     62191.83446  23393893.08546
     85115.89506  23384940.55806     59299.64246  23384940.52246
   -509145.38307  21199024.75307   -386010.45048  21199024.08148
   -611942.05907  20133852.20607   -465778.23648  20133849.50748
   -129941.07806  21017262.44006   -101712.24448  21017262.07348
   -956391.82805  23531741.65105   -728059.21346  23531741.72946
   -110811.63307  20586873.69807    -87537.58048  20586872.09748
 04  2 13  2 51 59.9990000  0  7  2  3  8 11 27 28 31
     96508.73406  23395373.07306     68261.28546  23395375.51546
     92255.43006  23386298.47906     64862.88547  23386298.98747
   -550437.96107  21191167.31507   -418186.49648  21191166.26948
   -661985.77007  20124329.69807   -504773.33948  20124326.62448
   -139912.96907  21015365.01907   -109482.56348  21015364.23748
  -1036477.95305  23516501.62005   -790463.94246  23516501.71046
   -119654.35207  20585191.30007    -94428.01648  20585189.31948
 04  2 13  2 52 14.9990000  0  7  2  3  8 11 27 28 31
    104372.02306  23396869.98706     74388.44646  23396872.15146
     99416.91806  23387661.69006     70443.18046  23387662.11246
   -591557.84807  21183342.78407   -450227.96748  21183341.73348
   -711888.66807  20114833.13607   -543658.70348  20114830.62048
   -149745.67206  21013494.19006   -117144.43147  21013493.41747
  -1116543.12105  23501265.47205   -852852.36446  23501265.86646
   -128429.42207  20583521.27607   -101265.75248  20583519.96448
 04  2 13  2 52 29.9990000  0  7  2  3  8 11 27 28 31
    112308.34806  23398380.69006     80572.50646  23398382.37846
    106599.42205  23389028.66705     76039.91347  23389028.94047
   -632505.76607  21175550.76107   -482135.44848  21175549.53448
   -761651.41807  20105363.81507   -582434.87048  20105361.24548
   -159440.47306  21011649.30006   -124698.83947  21011647.94047
  -1196587.87505  23486033.76905   -915224.88347  23486033.21847
   -137137.75807  20581864.42507   -108051.47748  20581862.73348
 04  2 13  2 52 44.9990000  0  7  2  3  8 11 27 28 31
    120317.23006  23399904.34706     86813.09146  23399906.47246
    113802.46905  23390399.50305     81652.59846  23390399.40146
   -673282.04707  21167791.60407   -513909.16648  21167789.75348
   -811274.29307  20095920.88607   -621102.03748  20095918.33148
   -168997.84806  21009830.83106   -132146.16547  21009829.66347
  -1276612.48006  23470805.63606   -977581.69647  23470805.14747
   -145779.91807  20580219.72207   -114785.63148  20580217.99548
 04  2 13  2 52 59.9990000  0  7  2  3  8 11 27 28 31
    128396.06306  23401441.63606     93108.22246  23401444.22646
    121023.66006  23391773.47906     87279.47446  23391773.67946
   -713889.05507  21160064.25307   -545550.98348  21160062.52248
   -860759.82407  20086503.82307   -659662.16948  20086501.31948
   -178420.62106  21008037.32306   -139488.58547  21008036.70647
  -1356619.22705  23455581.05005  -1039924.56646  23455579.88646
   -154358.48807  20578587.46407   -121470.25348  20578585.50748
 04  2 13  2 53 14.9990000  0  7  2  3  8 11 27 28 31
    136543.97306  23402991.82306     99457.08346  23402994.89046
    128262.20306  23393151.22206     92919.87747  23393151.28447
   -754327.77007  21152368.72207   -577061.66748  21152367.58948
   -910108.75407  20077112.74507   -698115.87548  20077110.54648
   -187709.73405  21006269.79205   -146726.88547  21006269.06947
  -1436608.61706  23440359.20606  -1102253.95246  23440358.99546
   -162874.33607  20576966.63607   -128105.98048  20576964.58948
 04  2 13  2 53 29.9990000  0  7  2  3  8 11 27 28 31
    144761.01206  23404556.47906    105859.88446  23404559.09746
    135518.11706  23394531.08906     98573.78846  23394531.47646
   -794597.72307  21144705.12807   -608440.86148  21144704.24148
   -959320.77307  20067748.44807   -736462.88548  20067745.72248
   -196865.34805  21004527.60405   -153861.14847  21004526.76147
  -1516580.34006  23425140.69006  -1164569.53946  23425140.48346
   -171327.46507  20575358.19007   -134692.84448  20575355.97648
 04  2 13  2 53 44.9990000  0  7  2  3  8 11 27 28 31
    153045.73406  23406132.94806    112315.41646  23406134.98746
    142790.11706  23395915.36206    104240.24546  23395915.47646
   -834700.23807  21137073.97207   -639689.54448  21137073.25348
  -1008397.27307  20058409.26107   -774704.29348  20058406.22648
   -205889.04306  21002810.10406   -160892.61147  21002809.41347
  -1596535.43406  23409926.15106  -1226872.18746  23409925.31246
   -179719.35907  20573761.30807   -141231.98648  20573759.49948
 04  2 13  2 53 59.9990000  0  7  2  3  8 11 27 28 31
    161397.22306  23407722.13606    118822.94946  23407724.26546
    150077.24206  23397301.68306    109918.49347  23397302.41747
   -874636.02707  21129474.56507   -670808.37648  21129473.55448
  -1057338.87107  20049095.98707   -812840.60248  20049093.12448
   -214781.75806  21001118.29206   -167822.01947  21001117.32347
  -1676474.52006  23394714.15906  -1289162.35246  23394713.62446
   -188050.79307  20572175.51107   -147724.01248  20572174.26548
 04  2 13  2 54 14.9990000  0  7  2  3  8 11 27 28 31
    169815.18806  23409324.48706    125382.27446  23409326.03046
    157379.25005  23398691.41705    115608.31546  23398691.98746
   -914405.42607  21121906.72207   -701797.52048  21121905.80848
  -1106145.84807  20039808.87807   -850872.00148  20039805.66348
   -223544.07806  20999450.92506   -174649.83847  20999450.35147
  -1756397.70706  23379505.18306  -1351440.13546  23379504.54646
   -196322.27007  20570601.91707   -154169.32748  20570600.59348
 04  2 13  2 54 29.9990000  0  7  2  3  8 11 27 28 31
    178298.64806  23410938.33906    131992.67646  23410940.44046
    164695.37106  23400084.29206    121309.15746  23400084.52246
   -954008.94507  21114370.67507   -732657.40148  21114369.69848
  -1154818.78507  20030546.29207   -888798.94248  20030543.75348
   -232177.04706  20997807.95606   -181376.82147  20997807.61647
  -1836305.41806  23364299.56506  -1413705.84046  23364299.10446
   -204534.52307  20569039.35407   -160568.49548  20569037.84748
 04  2 13  2 54 44.9990000  0  7  2  3  8 11 27 28 31
    186846.49206  23412565.31506    138653.22546  23412566.38246
    172024.44905  23401478.46405    127020.06346  23401479.34346
   -993447.73007  21106866.17507   -763388.93048  21106865.05448
  -1203358.79707  20021309.29207   -926622.32448  20021306.66348
   -240681.89506  20996189.44806   -188003.99147  20996189.11647
  -1916198.56306  23349095.79206  -1475960.20547  23349095.64447
   -212688.73007  20567487.63607   -166922.42948  20567486.53848
 04  2 13  2 54 59.9990000  0  7  2  3  8 11 27 28 31
    195456.71906  23414204.65106    145362.39446  23414205.14046
    179364.59406  23402875.05806    132739.62346  23402876.96446
  -1032723.62907  21099391.69807   -793993.53048  21099390.96448
  -1251767.64107  20012097.37007   -964343.47948  20012094.99948
   -249060.68406  20994595.22206   -194532.94147  20994594.75347
  -1996078.74606  23333895.60406  -1538204.49246  23333894.70646
   -220786.91407  20565946.57307   -173232.71148  20565945.58948
 04  2 13  2 55 14.9990000  0  7  2  3  8 11 27 28 31
    204130.36306  23415855.03406    152120.99146  23415855.65146
    186716.78505  23404274.62005    138468.52746  23404275.89446
  -1071835.40207  21091949.31507   -824470.22948  21091947.71048
  -1300044.26207  20002910.77607  -1001961.61048  20002908.48348
   -257312.70706  20993024.51906   -200963.10147  20993024.51947
  -2075944.61706  23318697.88606  -1600437.62447  23318696.90947
   -228828.02007  20564416.17507   -179498.52448  20564415.53848
 04  2 13  2 55 29.9990000  0  7  2  3  8 11 27 28 31
    212867.23006  23417517.80006    158928.79246  23417518.71046
    194080.89105  23405675.60405    144206.76446  23405677.78046
  -1110783.02007  21084537.80807   -854819.01948  21084536.49148
  -1348188.61707  19993749.00307  -1039476.67748  19993746.88248
   -265438.16806  20991478.19006   -207294.64347  20991478.24147
  -2155796.16406  23303502.48706  -1662659.55647  23303501.80447
   -236812.28907  20562897.11207   -185720.03948  20562896.04248
 04  2 13  2 55 44.9990000  0  7  2  3  8 11 27 28 31
    221666.26206  23419191.44006    165785.03546  23419193.02246
    201456.06605  23407079.18305    149953.61646  23407081.80446
  -1149567.44507  21077157.23707   -885040.62848  21077156.31248
  -1396201.57407  19984612.32307  -1076889.35048  19984610.43748
   -273438.33606  20989955.83106   -213528.53847  20989956.00347
  -2235634.05506  23288310.09706  -1724870.86947  23288309.18347
   -244740.72307  20561388.69007   -191898.03748  20561387.27248
 04  2 13  2 55 59.9990000  0  7  2  3  8 11 27 28 31
    230526.75406  23420877.81506    172689.20846  23420879.46446
    208841.62505  23408484.89405    155708.54246  23408487.81546
  -1188189.20306  21069807.19806   -915135.50248  21069806.57348
  -1444083.65607  19975500.87807  -1114200.03948  19975498.62848
   -281313.91006  20988458.14406   -219665.37847  20988457.81547
  -2315458.52006  23273119.72906  -1787071.71947  23273118.44847
   -252613.96507  20559889.87007   -198033.02548  20559888.47248
 04  2 13  2 56 14.9990000  0  7  2  3  8 11 27 28 31
    239448.40606  23422575.62006    179641.00646  23422577.40146
    216237.41405  23409892.36205    161471.46746  23409894.31946
  -1226648.40606  21062488.42506   -945103.70148  21062488.24148
  -1491835.05907  19966413.96407  -1151408.91749  19966411.69849
   -289065.32806  20986982.72206   -225705.46947  20986982.94847
  -2395269.66406  23257932.12806  -1849262.19847  23257930.74947
   -260432.36307  20558402.30807   -204125.30048  20558400.80448
 04  2 13  2 56 29.9990000  0  7  2  3  8 11 27 28 31
    248430.27706  23424285.19006    186639.75946  23424286.56546
    223642.58204  23411301.18304    167241.68646  23411303.61646
  -1264945.75406  21055200.55006   -974945.80648  21055200.37048
  -1539456.59407  19957352.27607  -1188516.59948  19957349.46048
   -296693.73006  20985531.08906   -231649.69747  20985530.69047
  -2475068.08606  23242747.19006  -1911442.75147  23242746.07747
   -268196.77707  20556924.51107   -210175.48348  20556923.10848
 04  2 13  2 56 44.9990000  0  7  2  3  8 11 27 28 31
    257472.18006  23426006.11206    193685.30846  23426007.84746
    231056.96905  23412712.33105    173019.08846  23412714.08546
  -1303081.40606  21047943.92506  -1004661.92148  21047943.46848
  -1586948.05907  19948314.70607  -1225522.91848  19948312.05048
   -304199.53106  20984102.91706   -237498.38547  20984102.01547
  -2554853.50006  23227564.35406  -1973613.17547  23227563.33147
   -275907.43407  20555457.29207   -216183.80048  20555455.55448
 04  2 13  2 56 59.9990000  0  7  2  3  8 11 27 28 31
    266573.84406  23427737.76906    200777.39946  23427740.39046
    238480.37105  23414124.95605    178803.53646  23414126.23746
  -1341055.49606  21040717.89406  -1034252.12148  21040716.94448
  -1634309.76207  19939302.15907  -1262428.12948  19939299.24148
   -311582.98806  20982697.92506   -243251.76247  20982697.19047
  -2634625.90206  23212384.16706  -2035773.47347  23212383.08547
   -283564.60507  20553999.99507   -222150.42148  20553998.68348
 04  2 13  2 57 14.9990000  0  7  2  3  8 11 27 28 31
    275735.38306  23429481.05006    207916.12046  23429483.55046
    245912.95705  23415539.90105    184595.10446  23415539.78046
  -1378867.64506  21033522.64406  -1063716.14748  21033521.59748
  -1681541.48007  19930314.44807  -1299232.05048  19930311.26148
   -318844.31606  20981315.84706   -248909.96147  20981315.37447
  -2714384.85906  23197206.16706  -2097923.27547  23197205.13647
   -291168.15207  20552553.10407   -228075.26848  20552551.69048
 04  2 13  2 57 29.9990000  0  7  2  3  8 11 27 28 31
    284957.02006  23431236.51106    215101.66746  23431238.14746
    253354.96506  23416955.80806    190394.01446  23416955.73346
  -1416517.69107  21026357.76907  -1093053.83448  21026357.06248
  -1728642.84007  19921350.96407  -1335934.39648  19921348.46448
   -325983.33206  20979957.57306   -254472.84947  20979956.90147
  -2794129.89806  23182030.76106  -2160062.26847  23182029.88647
   -298717.88307  20551116.44007   -233958.18648  20551115.01548
 04  2 13  2 57 44.9990000  0  7  2  3  8 11 27 28 31
    294236.67206  23433002.23706    222332.47346  23433004.32346
    260804.41805  23418373.08105    196198.71846  23418374.14046
  -1454007.26607  21019224.23707  -1122266.50248  21019222.81948
  -1775615.63707  19912412.12007  -1372536.55748  19912409.87848
   -333002.21106  20978621.58906   -259942.11447  20978621.62847
  -2873862.60906  23166858.15106  -2222191.58546  23166857.13246
   -306215.72307  20549689.93307   -239800.67648  20549688.37448
 04  2 13  2 57 59.9990000  0  7  2  3  8 11 27 28 31
    303575.29306  23434779.40906    229609.18646  23434781.16346
    268262.38305  23419791.87805    202010.10146  23419794.18746
  -1491335.50807  21012121.08907  -1151353.42948  21012119.40548
  -1822458.78907  19903498.34707  -1409037.69548  19903495.71848
   -339900.21906  20977309.19006   -265317.20447  20977308.67147
  -2953581.78506  23151687.82306  -2284310.39946  23151687.51946
   -313660.88707  20548273.08907   -245602.11148  20548271.33548
 04  2 13  2 58 14.9990000  0  7  2  3  8 11 27 28 31
    312971.64506  23436567.29206    236930.91546  23436569.05046
    275727.71905  23421213.35405    207827.14746  23421213.90146
  -1528503.48407  21005048.01107  -1180315.48348  21005046.83548
  -1869173.34807  19894609.08107  -1445438.64348  19894606.28848
   -346678.71106  20976019.57306   -270599.17547  20976019.31247
  -3033288.33606  23136520.29206  -2346419.37546  23136519.28446
   -321054.49607  20546865.86207   -251363.39548  20546864.55448
 04  2 13  2 58 29.9990000  0  7  2  3  8 11 27 28 31
    322426.37506  23438366.51906    244298.05746  23438368.67946
    283201.24605  23422635.83905    213650.62646  23422636.26546
  -1565510.38307  20998005.85407  -1209152.00148  20998004.40948
  -1915758.49607  19885744.12807  -1481738.74448  19885741.79648
   -353337.18805  20974752.52605   -275787.58047  20974752.21047
  -3112981.18406  23121355.43306  -2408517.67047  23121354.55447
   -328395.85207  20545469.33907   -257083.94248  20545467.06248
 04  2 13  2 58 44.9990000  0  7  2  3  8 11 27 28 31
    331938.87506  23440177.21406    251710.28146  23440178.95246
    290682.49205  23424058.75305    219480.13346  23424058.92946
  -1602356.43407  20990994.62807  -1237863.21748  20990992.96848
  -1962214.81607  19876903.79207  -1517938.45748  19876901.62448
   -359876.27305  20973507.95605   -280883.02647  20973507.78447
  -3192660.51206  23106192.97906  -2470605.43546  23106192.98746
   -335685.41807  20544081.78407   -262764.13748  20544080.14448
 04  2 13  2 58 59.9990000  0  7  2  3  8 11 27 28 31
    341509.48805  23441998.78405    259167.77746  23442000.14046
    298171.64505  23425483.92505    225315.79946  23425483.97946
  -1639041.42207  20984013.07307  -1266448.92248  20984012.16748
  -2008541.77707  19868087.87007  -1554037.36549  19868085.63649
   -366296.06606  20972285.67506   -285885.45747  20972286.37047
  -3272325.71106  23091033.05806  -2532682.16546  23091032.80446
   -342923.08207  20542704.59707   -268403.88448  20542702.74548
 04  2 13  2 59 14.9990000  0  7  2  3  8 11 27 28 31
    351136.55105  23443830.46405    266669.23446  23443831.20246
    305667.24605  23426910.94805    231156.45146  23426910.49146
  -1675566.77007  20977062.59707  -1294910.23948  20977061.32348
  -2054740.93407  19859296.57307  -1590036.69749  19859294.30449
   -372598.05506  20971087.00306   -290796.12947  20971087.61247
  -3351978.13706  23075875.95606  -2594748.96547  23075875.54247
   -350110.38707  20541337.00307   -274004.39048  20541335.67548
 04  2 13  2 59 29.9990000  0  7  2  3  8 11 27 28 31
    360819.95305  23445673.47205    274214.61746  23445674.12846
    313169.27304  23428338.03404    237002.13946  23428338.37046
  -1711932.43406  20970142.55806  -1323247.11948  20970141.31548
  -2100812.19507  19850529.36207  -1625936.35448  19850527.12048
   -378782.67606  20969910.05006   -295615.31447  20969910.56247
  -3431617.40606  23060721.27606  -2656805.49947  23060720.34747
   -357247.41407  20539978.77607   -279565.72348  20539977.69448
 04  2 13  2 59 44.9990000  0  7  2  3  8 11 27 28 31
    370560.24205  23447527.04205    281804.34946  23447528.47946
    320678.38304  23429767.50304    242853.38046  23429766.69046
  -1748137.75007  20963252.75307  -1351459.06748  20963252.01948
  -2146754.78507  19841786.84707  -1661735.76548  19841784.23748
   -384849.40206  20968755.23706   -300342.66547  20968755.89047
  -3511242.77706  23045569.44806  -2718851.24947  23045568.29247
   -364333.57807  20538630.26107   -285087.42148  20538629.77248
 04  2 13  2 59 59.9990000  0  7  2  3  8 11 27 28 31
    380357.25805  23449390.99505    289438.26946  23449392.55846
    328194.53104  23431197.92504    248710.01246  23431197.93346
  -1784182.69107  20956393.87807  -1379546.05048  20956392.81248
  -2192568.68407  19833068.98707  -1697434.89148  19833066.59348
   -390798.68406  20967623.77606   -304978.50247  20967623.99947
  -3590854.00006  23030419.03406  -2780885.89647  23030418.17947
   -371369.01207  20537291.65107   -290569.58148  20537290.51948
 04  2 13  3  0 14.9990000  0  7  2  3  8 11 27 28 31
    390209.71505  23451265.76905    297115.36546  23451267.49146
    335716.44103  23432629.45603    254571.24946  23432628.80846
  -1820068.37107  20949564.83907  -1407508.92748  20949563.93748
  -2238255.04307  19824375.44807  -1733034.62848  19824372.71048
   -396631.78506  20966513.96406   -309523.80847  20966513.20247
  -3670452.07806  23015272.21406  -2842910.38947  23015271.48347
   -378354.97307  20535962.14407   -296013.20548  20535960.92948
 04  2 13  3  0 29.9990000  0  7  2  3  8 11 27 28 31
    400118.54305  23453151.71405    304836.35346  23453154.53046
    343245.14504  23434061.66704    260437.69446  23434061.74946
  -1855793.99607  20942766.81507  -1435347.07648  20942765.33548
  -2283812.94907  19815705.80807  -1768534.28248  19815703.49948
   -402348.21906  20965425.82306   -313978.19347  20965425.39047
  -3750035.80506  23000128.67506  -2904923.64247  23000127.67147
   -385290.59807  20534642.15907   -301417.61248  20534640.65148
 04  2 13  3  0 44.9990000  0  7  2  3  8 11 27 28 31
    410083.96505  23455048.79205    312601.44146  23455050.72246
    350780.98805  23435496.01105    266309.74146  23435496.31546
  -1891359.06607  20935998.93307  -1463060.13148  20935997.62448
  -2329241.92607  19807060.62007  -1803933.48449  19807058.73749
   -407947.63706  20964360.55806   -318341.42847  20964359.51947
  -3829604.39806  22984986.59706  -2966925.12147  22984985.56547
   -392175.55907  20533332.44807   -306782.54148  20533330.60448
 04  2 13  3  0 59.9990000  0  7  2  3  8 11 27 28 31
    420104.44905  23456955.12005    320409.46746  23456957.35846
    358322.56605  23436930.04205    272186.22146  23436931.74146
  -1926764.75807  20929261.47907  -1490648.97848  20929259.85448
  -2374543.35907  19798440.29207  -1839233.29248  19798437.69848
   -413431.76206  20963317.07306   -322614.77047  20963316.18347
  -3909158.98806  22969847.40106  -3028915.70247  22969847.40547
   -399011.30907  20532031.71407   -312109.11848  20532029.85848
 04  2 13  3  1 14.9990000  0  7  2  3  8 11 27 28 31
    430179.91405  23458872.75305    328260.35946  23458874.50746
    365869.73405  23438367.09705    278067.06546  23438368.37846
  -1962011.15207  20922554.20607  -1518113.68848  20922553.07748
  -2419717.14807  19789844.23707  -1874433.61848  19789841.82348
   -418800.90605  20962294.97205   -326798.53747  20962294.38247
  -3988699.41406  22954711.76106  -3090895.18947  22954711.26547
   -405797.98007  20530740.29207   -317397.44048  20530738.74948
 04  2 13  3  1 29.9990000  0  7  2  3  8 11 27 28 31
    440310.67205  23460800.35405    336154.32946  23460803.05046
    373423.00006  23439804.37006    283952.67046  23439806.14446
  -1997097.92207  20915877.56507  -1545454.03548  20915876.60448
  -2464762.98807  19781271.91707  -1909534.27548  19781269.72648
   -424054.84005  20961294.80005   -330892.56846  20961295.49946
  -4068225.09406  22939578.92506  -3152863.24947  22939577.51147
   -412535.21107  20529457.83907   -322647.26048  20529456.76548
 04  2 13  3  1 44.9980000  0  7  2  3  8 11 27 28 31
    450495.98804  23462738.42004    344090.78646  23462741.45546
    380981.90206  23441242.88106    289842.67246  23441244.95946
  -2032022.56307  20909231.36507  -1572668.04248  20909230.29948
  -2509677.70307  19772724.83407  -1944532.73548  19772722.29148
   -429193.50405  20960317.52105   -334896.74047  20960316.97147
  -4147730.30506  22924449.41206  -3214815.33847  22924448.60047
   -419222.59407  20528185.06807   -327858.22248  20528184.33848
 04  2 13  3  1 59.9980000  0  7  2  3  8 11 27 28 31
    460735.83605  23464687.70105    352069.68646  23464690.62346
    388546.13706  23442682.95106    295736.83146  23442684.80746
  -2066791.09007  20902615.16207  -1599760.39848  20902613.90048
  -2554468.53907  19764201.21707  -1979434.67048  19764198.61948
   -434219.07805  20959361.56805   -338812.80146  20959360.68246
  -4227226.71906  22909321.47506  -3276760.57247  22909320.41647
   -425862.39107  20526921.78707   -333032.10148  20526920.80748
 04  2 13  3  2 14.9980000  0  7  2  3  8 11 27 28 31
    471029.56304  23466646.53704    360090.61746  23466649.67046
    396115.34806  23444122.99006    301634.85546  23444125.22546
  -2101400.92607  20896029.42007  -1626729.11448  20896028.18948
  -2599132.20307  19755702.28707  -2014237.51448  19755699.58048
   -439131.36305  20958426.23205   -342640.62846  20958425.90446
  -4306708.54706  22894196.63106  -3338694.46847  22894195.62347
   -432454.01607  20525667.33407   -338168.45148  20525666.43648
 04  2 13  3  2 29.9980000  0  7  2  3  8 11 27 28 31
    481378.12905  23468616.43605    368154.24346  23468619.37746
    403690.60506  23445564.24806    307537.57246  23445567.04946
  -2135850.95307  20889473.57607  -1653573.31048  20889473.05348
  -2643667.73007  19747227.33407  -2048940.51348  19747224.93248
   -443929.51205  20957513.19305   -346379.45546  20957512.82246
  -4386174.50006  22879075.38106  -3400615.94047  22879074.10447
   -438996.52307  20524422.11507   -343266.51248  20524421.61948
 04  2 13  3  2 44.9980000  0  7  2  3  8 11 27 28 31
    491780.34404  23470595.31804    376259.78746  23470598.50646
    411270.77306  23447007.13906    313444.10946  23447009.32246
  -2170142.23807  20882947.68607  -1680293.79748  20882946.98648
  -2688076.05507  19738776.63907  -2083544.39448  19738774.21348
   -448614.83603  20956621.66203   -350030.40346  20956621.77946
  -4465625.39106  22863955.89606  -3462525.70247  22863955.16247
   -445491.03907  20523186.08407   -348327.17748  20523185.09248
 04  2 13  3  2 59.9980000  0  7  2  3  8 11 27 28 31
    502236.19905  23472585.35705    384407.01646  23472588.09246
    418856.04306  23448450.57606    319354.62846  23448453.09246
  -2204274.64807  20876452.88907  -1706890.48548  20876451.88548
  -2732357.11307  19730350.20907  -2118049.11948  19730347.59248
   -453187.50404  20955751.67004   -353593.50246  20955751.74046
  -4545060.83206  22848839.46706  -3524423.42047  22848839.62347
   -451937.50807  20521959.80307   -353350.41948  20521957.99048
 04  2 13  3  3 14.9980000  0  7  2  3  8 11 27 28 31
    512746.20704  23474585.36504    392596.52846  23474588.59246
    426446.81305  23449895.27105    325269.41546  23449897.83446
  -2238247.67207  20869988.24007  -1733362.97348  20869987.25648
  -2776510.24207  19721948.23207  -2152454.14448  19721945.55348
   -457647.24203  20954902.85703   -357068.66846  20954902.51446
  -4624480.07406  22833726.85006  -3586308.48847  22833725.86147
   -458335.46507  20520742.20107   -358335.84148  20520740.91648
 04  2 13  3  3 29.9980000  0  7  2  3  8 11 27 28 31
    523310.04705  23476595.50605    400827.90046  23476598.67446
    434043.02305  23451340.66205    331188.48246  23451344.09246
  -2272061.45707  20863553.60707  -1759711.37148  20863552.62748
  -2820535.57407  19713570.35707  -2186759.60748  19713567.78748
   -461994.41803  20954075.45903   -360456.12445  20954075.10445
  -4703882.91806  22818617.11506  -3648180.83847  22818615.95547
   -464685.14807  20519533.99807   -363283.68048  20519532.56448
 04  2 13  3  3 44.9980000  0  7  2  3  8 11 27 28 31
    533927.41005  23478615.83405    409100.92846  23478619.38546
    441644.46505  23452787.13105    337111.67946  23452789.92046
  -2305716.22307  20857149.25607  -1785935.87148  20857148.06148
  -2864433.32407  19705217.31107  -2220965.64148  19705214.63148
   -466229.69502  20953268.58402   -363756.34045  20953269.43245
  -4783269.43006  22803509.81106  -3710040.43747  22803509.91647
   -470986.91807  20518335.07607   -368194.16148  20518333.26048
 04  2 13  3  3 59.9980000  0  7  2  3  8 11 27 28 31
    544598.09405  23480647.13905    417415.59146  23480650.32246
    449250.92605  23454235.11505    343038.71446  23454237.50246
  -2339212.02307  20850775.38107  -1812036.49548  20850774.41248
  -2908203.54707  19696887.99007  -2255072.30349  19696885.10449
   -470353.15604  20952484.97504   -366969.48845  20952484.93945
  -4862639.45306  22788405.90406  -3771887.20047  22788405.65847
   -477240.84007  20517145.11507   -373067.35948  20517143.10748
 04  2 13  3  4 14.9980000  0  7  2  3  8 11 27 28 31
    555322.07005  23482687.62305    425771.78446  23482691.02146
    456862.60506  23455683.26406    348969.81646  23455686.16646
  -2372548.75407  20844431.50607  -1838013.18048  20844430.90048
  -2951846.18007  19688583.13907  -2289079.54249  19688580.83849
   -474365.18003  20951721.98203   -370095.81645  20951720.95945
  -4941992.52706  22773306.34206  -3833720.71247  22773305.96747
   -483446.93007  20515963.97507   -377903.29248  20515961.77548
 04  2 13  3  4 29.9980000  0  7  2  3  8 11 27 28 31
    566098.33205  23484738.03705    434168.68446  23484741.97546
    464478.67605  23457132.62305    354904.40446  23457135.34646
  -2405727.19507  20838117.66207  -1863866.51348  20838117.11548
  -2995361.93807  19680301.96707  -2322987.90449  19680300.19749
   -478266.76201  20950979.79501   -373135.96545  20950978.70145
  -5021329.19506  22758209.19306  -3895541.46747  22758208.17847
   -489606.04307  20514792.00607   -382702.60648  20514790.19348
 04  2 13  3  4 44.9980000  0  7  2  3  8 11 27 28 31
    576928.55905  23486799.67805    442607.64946  23486803.08446
    472100.84406  23458583.24006    360843.67546  23458586.12746
  -2438745.66807  20831834.27907  -1889595.21448  20831833.81148
  -3038749.02307  19672045.89607  -2356796.02149  19672043.72549
   -482056.55504  20950258.59204   -376089.12545  20950257.35745
  -5100647.65206  22743115.13906  -3957348.04247  22743113.92047
   -495716.57807  20513629.26407   -387464.06448  20513627.41248
 04  2 13  3  4 59.9980000  0  7  2  3  8 11 27 28 31
    587810.52305  23488869.98205    451086.95846  23488873.81446
    479727.03906  23460034.85006    366786.06246  23460037.40046
  -2471606.15607  20825581.11507  -1915200.80448  20825581.06848
  -3082009.50007  19663813.42807  -2390505.47649  19663811.53349
   -485736.68404  20949559.11504   -378956.70745  20949557.60445
  -5179949.43406  22728024.49006  -4019141.62247  22728023.33047
   -501780.60507  20512475.52107   -392189.28048  20512474.24448
 04  2 13  3  5 14.9980000  0  7  2  3  8 11 27 28 31
    598745.40204  23490951.34204    459607.44046  23490954.96746
    487358.34806  23461486.26406    372732.49346  23461489.45946
  -2504307.55107  20819357.89607  -1940682.42348  20819358.31148
  -3125142.13307  19655605.95107  -2424115.31049  19655603.36149
   -489306.33204  20948879.37304   -381738.26245  20948878.36545
  -5259233.23006  22712937.11506  -4080921.17147  22712935.78747
   -507797.05107  20511330.37307   -396877.42648  20511329.32648
 04  2 13  3  5 29.9980000  0  7  2  3  8 11 27 28 31
    609732.15605  23493042.53705    468168.40046  23493045.54146
    494993.94906  23462939.54506    378682.29346  23462942.27146
  -2536850.65207  20813165.37307  -1966040.70648  20813164.95548
  -3168147.81607  19647422.06807  -2457626.22148  19647420.03748
   -492766.73804  20948220.60704   -384434.63345  20948219.93945
  -5338499.65206  22697853.10706  -4142687.17547  22697852.45547
   -513766.87507  20510194.39607   -401529.24648  20510193.40848
 04  2 13  3  5 44.9980000  0  7  2  3  8 11 27 28 31
    620770.69905  23495142.70905    476769.61746  23495146.35746
    502633.84406  23464393.19306    384635.39246  23464396.06846
  -2569235.66007  20807003.13107  -1991275.78248  20807002.28348
  -3211026.62907  19639262.36507  -2491038.28148  19639260.06448
   -496118.03505  20947582.72505   -387046.10245  20947581.93945
  -5417748.44906  22682772.71706  -4204439.48647  22682771.28747
   -519690.11707  20509067.60007   -406144.77448  20509066.49048
 04  2 13  3  5 59.9980000  0  7  2  3  8 11 27 28 31
    631861.42205  23497253.30305    485411.52446  23497257.00246
    510278.53506  23465847.58406    390592.24046  23465850.15446
  -2601461.89507  20800870.38907  -2016387.15548  20800869.54148
  -3253778.11307  19631127.30307  -2524351.12048  19631124.92848
   -499360.17604  20946965.93604   -389572.47745  20946965.30345
  -5496978.87906  22667695.11506  -4266177.46946  22667693.59246
   -525566.38307  20507949.24007   -410723.68748  20507948.39648
 04  2 13  3  6 14.9980000  0  7  2  3  8 11 27 28 31
    643003.84005  23499374.09205    494093.82246  23499377.44746
    517927.95706  23467303.67806    396552.74246  23467305.54146
  -2633529.69907  20794768.70907  -2041375.07148  20794766.95948
  -3296402.39807  19623016.19307  -2557564.84948  19623012.97148
   -502493.58205  20946369.16205   -392014.13745  20946368.68245
  -5576190.87506  22652621.52106  -4327901.08147  22652620.26847
   -531395.91407  20506839.85007   -415266.17748  20506838.88148
 04  2 13  3  6 29.9980000  0  7  2  3  8 11 27 28 31
    654197.95705  23501504.92805    502816.28246  23501508.20946
    525581.90206  23468760.34206    402516.86646  23468761.82646
  -2665439.01607  20788696.51407  -2066239.49148  20788695.29548
  -3338899.34807  19614929.04507  -2590679.35149  19614926.63949
   -505518.50405  20945794.16205   -394371.27045  20945792.30745
  -5655384.15206  22637551.46706  -4389610.08747  22637550.24047
   -537178.85207  20505739.45107   -419772.36048  20505738.49848
 04  2 13  3  6 44.9980000  0  7  2  3  8 11 27 28 31
    665443.55905  23503644.28705    511578.90846  23503648.38546
    533240.17205  23470217.27905    408484.29646  23470218.56846
  -2697190.16407  20782654.55307  -2090980.64648  20782653.25248
  -3381269.18007  19606866.11507  -2623694.79849  19606864.04549
   -508435.43806  20945238.30306   -396644.18145  20945237.47945
  -5734558.68006  22622485.05306  -4451304.51147  22622484.13547
   -542915.44507  20504647.71707   -424242.44148  20504646.49848
 04  2 13  3  6 59.9980000  0  7  2  3  8 11 27 28 31
    676741.50005  23505794.28705    520382.32946  23505799.05746
    540903.76205  23471675.87305    414455.88746  23471676.63946
  -2728781.82407  20776642.77107  -2115597.53348  20776641.73248
  -3423510.80507  19598827.90407  -2656610.34248  19598825.69348
   -511243.42205  20944703.92005   -398832.26045  20944701.90845
  -5813713.03906  22607422.81806  -4512983.21447  22607422.04547
   -548604.61307  20503564.63907   -428675.54648  20503563.84648
 04  2 13  3  7 14.9980000  0  7  2  3  8 11 27 28 31
    688090.08605  23507954.35705    529225.18746  23507958.22946
    548571.13306  23473134.76406    420430.36546  23473135.75246
  -2760215.89807  20770661.35007  -2140091.61948  20770660.14348
  -3465625.89507  19590813.72507  -2689427.28649  19590811.24049
   -513944.55905  20944189.41205   -400937.08446  20944187.96746
  -5892848.45306  22592363.96706  -4574647.14347  22592363.31847
   -554248.06307  20502490.89607   -433073.02548  20502489.51848
 04  2 13  3  7 29.9980000  0  7  2  3  8 11 27 28 31
    699490.49605  23510124.28705    538108.41146  23510128.57646
    556243.66406  23474595.76406    426408.90546  23474595.69746
  -2791490.88707  20764709.79507  -2164461.74748  20764708.52548
  -3507613.06607  19582823.77107  -2722144.54949  19582821.50649
   -516537.67605  20943697.14605   -402957.73846  20943695.92446
  -5971963.52006  22577309.35706  -4636295.22647  22577308.00247
   -559844.54707  20501425.97507   -437433.92148  20501424.53748
 04  2 13  3  7 44.9980000  0  7  2  3  8 11 27 28 31
    710941.37505  23512303.56105    547030.95446  23512307.45146
    563920.05106  23476056.73206    432390.47246  23476055.89646
  -2822608.16807  20758788.47507  -2188708.99148  20758787.13148
  -3549473.39807  19574858.23207  -2754762.98848  19574856.22548
   -519024.31605  20943223.72505   -404895.38646  20943222.97546
  -6051059.21506  22562257.56806  -4697928.19647  22562256.76047
   -565395.33207  20500369.81107   -441759.21848  20500368.02148
 04  2 13  3  7 59.9980000  0  7  2  3  8 11 27 28 31
    722443.59005  23514492.88105    555993.59046  23514496.66246
    571601.38706  23477517.88906    438375.82346  23477518.04146
  -2853566.72707  20752897.17007  -2212832.53648  20752896.02548
  -3591205.96107  19566916.93607  -2787281.85449  19566914.70149
   -521403.77005  20942770.09205   -406749.54146  20942770.31446
  -6130134.14806  22547210.44306  -4759545.01647  22547209.25647
   -570899.50407  20499322.41207   -446048.17948  20499320.40848
 04  2 13  3  8 14.9980000  0  7  2  3  8 11 27 28 31
    733996.28505  23516691.25605    564995.43546  23516695.38946
    579286.95306  23478980.54506    444364.53746  23478980.85046
  -2884367.25407  20747035.82607  -2236832.96348  20747034.53748
  -3632811.52707  19558999.42007  -2819701.77049  19558997.08449
   -523677.07005  20942337.59205   -408520.95746  20942337.76446
  -6209188.86306  22532166.37306  -4821146.07247  22532165.68947
   -576357.86707  20498283.98207   -450301.45348  20498281.40848
 04  2 13  3  8 29.9980000  0  7  2  3  8 11 27 28 31
    745599.56605  23518898.63105    574036.78546  23518904.03346
    586976.84406  23480443.76406    450356.64046  23480444.62746
  -2915009.53907  20741204.95107  -2260710.07848  20741203.29148
  -3674289.89507  19551106.59207  -2852022.56248  19551104.03348
   -525844.13304  20941925.65404   -410209.67046  20941925.24846
  -6288222.83206  22517126.95906  -4882730.95647  22517126.11147
   -581770.23807  20497254.17807   -454518.88548  20497251.68648
 04  2 13  3  8 44.9980000  0  7  2  3  8 11 27 28 31
    757253.04705  23521116.52105    583117.19946  23521121.70946
    594670.89506  23481907.78706    456351.94246  23481908.84246
  -2945493.95307  20735403.45107  -2284464.18948  20735402.43648
  -3715641.30907  19543237.56807  -2884244.44048  19543235.10048
   -527905.65604  20941533.45104   -411816.10546  20941533.05746
  -6367235.93006  22502091.13106  -4944299.59447  22502089.63547
   -587136.97307  20496232.67807   -458700.76448  20496230.81148
 04  2 13  3  8 59.9980000  0  7  2  3  8 11 27 28 31
    768957.00805  23523343.99005    592236.97846  23523349.04146
    602369.36305  23483372.87305    462350.74546  23483374.14646
  -2975820.20307  20729632.46707  -2308095.05148  20729631.97948
  -3756865.30907  19535392.98207  -2916367.02648  19535390.47148
   -529861.60204  20941161.40404   -413340.30246  20941161.29946
  -6446227.66006  22487060.07606  -5005851.57647  22487058.07647
   -592457.83207  20495220.06107   -462846.89348  20495218.12748
 04  2 13  3  9 14.9980000  0  7  2  3  8 11 27 28 31
    780711.16005  23525580.92805    601395.84246  23525585.88946
    610072.12506  23484839.08406    468352.80746  23484839.94346
  -3005988.23407  20723891.98207  -2331602.62048  20723891.42448
  -3797961.94507  19527572.45907  -2948390.38249  19527569.61149
   -531712.23404  20940809.80304   -414782.29346  20940809.19346
  -6525197.78506  22472031.93606  -5067386.71847  22472030.99047
   -597732.90207  20494216.06107   -466957.34148  20494214.23648
 04  2 13  3  9 29.9980000  0  7  2  3  8 11 27 28 31
    792514.80605  23527827.59205    610593.18246  23527832.17846
    617778.59805  23486305.89605    474357.78146  23486307.01446
  -3035998.91807  20718180.85007  -2354987.58948  20718180.17848
  -3838932.03507  19519776.24007  -2980315.11848  19519772.93648
   -533458.57004  20940477.35704   -416143.20946  20940477.29146
  -6604146.80106  22457008.35006  -5128905.40647  22457007.47147
   -602962.96507  20493220.78707   -471032.71248  20493219.04548
 04  2 13  3  9 44.9980000  0  7  2  3  8 11 27 28 31
    804368.51605  23530083.43605    619829.67246  23530088.30746
    625489.59005  23487773.02905    480366.32446  23487774.22946
  -3065851.48407  20712500.90407  -2378249.34048  20712499.48248
  -3879774.82807  19512003.83407  -3012140.66548  19512000.83048
   -535100.17603  20940164.79503   -417422.39846  20940165.55746
  -6683073.56306  22441989.35006  -5190406.74247  22441988.13147
   -608147.28907  20492234.23207   -475072.43748  20492232.68648
 04  2 13  3  9 59.9980000  0  7  2  3  8 11 27 28 31
    816271.70305  23532348.60705    629104.68646  23532353.14646
    633204.50505  23489240.55305    486377.93746  23489242.97946
  -3095546.44507  20706849.84207  -2401388.28848  20706849.11148
  -3920490.86707  19504255.79507  -3043867.44848  19504252.81148
   -536637.71903  20939871.99003   -418620.54246  20939872.94746
  -6761978.31306  22426974.20906  -5251890.93447  22426973.05747
   -613286.42607  20491256.62307   -479076.96248  20491255.29548
 04  2 13  3 10 14.9980000  0  7  2  3  8 11 27 28 31
    828224.21905  23534622.85705    638418.16946  23534628.16246
    640923.41405  23490710.24005    492392.56946  23490711.65446
  -3125083.93407  20701229.06107  -2424404.53848  20701228.28348
  -3961079.98407  19496531.99007  -3075495.33048  19496528.99848
   -538071.59004  20939599.41204   -419737.86746  20939599.86946
  -6840860.80107  22411963.60007  -5313357.80847  22411961.95547
   -618380.46107  20490287.28707   -483046.35448  20490285.90448
 04  2 13  3 10 29.9980000  0  7  2  3  8 11 27 28 31
    840225.93405  23536907.04505    647769.93146  23536911.06846
    648646.18805  23492179.10705    498410.26746  23492181.91646
  -3154463.96907  20695638.30307  -2447298.07348  20695637.56848
  -4001542.28107  19488832.35707  -3107024.39448  19488829.53348
   -539402.10905  20939346.29505   -420774.66446  20939346.77146
  -6919720.79306  22396956.74806  -5374807.12547  22396956.04147
   -623429.49207  20489326.55307   -486980.65648  20489324.99448
 04  2 13  3 10 44.9980000  0  6  3  8 11 27 28 31
    656372.49205  23493649.56805    504430.65546  23493652.90846
  -3183686.87907  20690077.38907  -2470069.19048  20690076.48648
  -4041878.20707  19481156.58407  -3138454.98448  19481153.68248
   -540629.87105  20939111.99805   -421731.43146  20939113.18646
  -6998558.36707  22381954.59207  -5436238.97347  22381953.44747
   -628433.98807  20488374.16207   -490880.26848  20488372.99448
 04  2 13  3 10 59.9980000  0  6  3  8 11 27 28 31
    664102.59805  23495120.78705    510454.05746  23495123.66646
  -3212752.55107  20684546.35007  -2492717.77148  20684544.91248
  -4082087.38307  19473504.99007  -3169786.79849  19473502.44749
   -541755.00805  20938898.35705   -422608.18546  20938899.24846
  -7077373.11307  22366956.05307  -5497653.06747  22366954.51447
   -633393.76607  20487430.39607   -494745.03748  20487428.83448
 04  2 13  3 11 14.9980000  0  6  3  8 11 27 28 31
    671836.65605  23496592.03705    516480.55346  23496595.20146
  -3241660.86307  20679045.07607  -2515243.74748  20679043.58048
  -4122169.34007  19465877.63907  -3201019.49049  19465875.17449
   -542777.68005  20938703.60005   -423405.08546  20938704.19346
  -7156164.48006  22351962.92006  -5559048.89447  22351961.24847
   -638308.69107  20486495.05307   -498574.85648  20486493.52148
 04  2 13  3 11 29.9980000  0  6  3  8 11 27 28 31
    679575.55905  23498064.71705    522510.82746  23498067.27546
  -3270410.83207  20673573.95907  -2537646.34848  20673573.20548
  -4162123.55107  19458274.63107  -3232152.62749  19458272.22549
   -543696.98805  20938528.93605   -424121.51246  20938528.65446
  -7234931.18406  22336974.13106  -5620425.52647  22336972.00247
   -643177.87907  20485568.82607   -502369.03248  20485567.03748
 04  2 13  3 11 44.9980000  0  6  3  8 11 27 28 31
    687319.56305  23499538.90405    528545.05546  23499541.15846
  -3299002.40207  20668133.21707  -2559925.50448  20668132.71748
  -4201949.84807  19450696.04507  -3263186.09748  19450693.57248
   -544513.21106  20938374.17006   -424757.55246  20938372.89346
  -7313672.69906  22321990.56106  -5681782.52747  22321988.02947
   -648001.12907  20484650.46707   -506127.41448  20484649.58848
 04  2 13  3 11 59.9980000  0  6  3  8 11 27 28 31
    695069.98405  23501014.29505    534584.31546  23501016.16646
  -3327434.32407  20662722.56107  -2582080.25448  20662722.03348
  -4241647.01207  19443141.71707  -3294118.94048  19443139.02948
   -545225.53905  20938238.60705   -425312.67146  20938236.34646
  -7392387.64807  22307011.77907  -5743118.83447  22307009.11547
   -652777.41007  20483741.44307   -509849.20048  20483740.02948
 04  2 13  3 12 14.9980000  0  6  3  8 11 27 28 31
    702825.98405  23502489.27105    540627.83446  23502491.78346
  -3355707.31607  20657342.77107  -2604111.17648  20657341.54948
  -4281215.62507  19435612.24807  -3324951.62648  19435609.24448
   -545834.65606  20938123.20106   -425787.32746  20938120.53346
  -7471076.37506  22292037.42806  -5804434.70647  22292035.09247
   -657507.24607  20482841.43607   -513534.79748  20482840.29948
 04  2 13  3 12 29.9980000  0  6  3  8 11 27 28 31
    710587.37905  23503966.82605    546675.67146  23503969.13546
  -3383821.83207  20651992.56107  -2626018.58848  20651991.79548
  -4320656.09007  19428106.58407  -3355684.45948  19428104.04548
   -546341.32406  20938025.76406   -426182.12946  20938023.97146
  -7549738.94506  22277068.60006  -5865730.18647  22277066.93647
   -662191.21907  20481950.05307   -517184.65248  20481948.92848
 04  2 13  3 12 44.9980000  0  6  3  8 11 27 28 31
    718353.93405  23505444.48205    552727.55946  23505446.35046
  -3411778.02007  20646672.68607  -2647802.65048  20646671.40848
  -4359968.48407  19420625.65407  -3386317.49448  19420622.91248
   -546745.95306  20937950.05306   -426497.47846  20937947.25246
  -7628375.16806  22262104.65406  -5927005.11847  22262102.92447
   -666829.37107  20481067.52907   -520798.81048  20481066.40448
 04  2 13  3 12 59.9980000  0  6  3  8 11 27 28 31
    726125.73005  23506922.93605    558783.40246  23506925.41646
  -3439575.94907  20641382.94307  -2669463.39348  20641382.45948
  -4399152.87107  19413169.57607  -3416850.79248  19413166.91648
   -547048.84406  20937891.64606   -426733.49346  20937890.22146
  -7706984.81606  22247145.36506  -5988259.36547  22247142.67447
   -671421.96107  20480193.39607   -524377.46448  20480192.90448
 04  2 13  3 13 14.9980000  0  6  3  8 11 27 28 31
    733901.16405  23508402.52905    564842.18446  23508404.93246
  -3467217.18407  20636123.26407  -2691002.04248  20636122.64648
  -4438210.78907  19405737.32607  -3447285.53148  19405734.22148
   -547251.94106  20937853.27106   -426891.81146  20937852.46346
  -7785569.06306  22232191.59206  -6049493.81847  22232189.77147
   -675970.39807  20479328.02107   -527921.71448  20479327.24848
 04  2 13  3 13 29.9970000  0  6  3  8 11 27 28 31
    741680.56305  23509882.93105    570904.02846  23509885.05646
  -3494699.19107  20630893.72807  -2712416.60348  20630892.84948
  -4477138.87507  19398329.29807  -3477619.10048  19398326.68848
   -547354.57006  20937833.25906   -426971.78646  20937833.82546
  -7864121.77006  22217243.36806  -6110703.68647  22217241.90747
   -680473.80907  20478471.14207   -531430.86848  20478469.96648
 04  2 13  3 13 44.9970000  0  6  3  8 11 27 28 31
    749464.15205  23511364.85305    576969.07046  23511366.72846
  -3522026.57007  20625693.40707  -2733710.67148  20625692.49748
  -4515943.02707  19390944.91507  -3507856.09248  19390942.76748
   -547358.03906  20937832.22806   -426974.51446  20937832.84546
  -7942653.78506  22202299.25906  -6171897.43547  22202297.17747
   -684933.55107  20477622.32907   -534906.01148  20477621.59948
 04  2 13  3 13 59.9970000  0  6  3  8 11 27 28 31
    757251.87505  23512846.50905    583037.46046  23512847.70046
  -3549197.08207  20620523.07107  -2754882.52048  20620522.43148
  -4554620.30907  19383585.01707  -3537994.22048  19383582.63848
   -547262.09406  20937851.21206   -426899.77946  20937851.34146
  -8021159.24607  22187359.89207  -6233070.47847  22187357.66947
   -689349.02707  20476782.37607   -538346.64948  20476780.83348
 04  2 13  3 14 14.9970000  0  6  3  8 11 27 28 31
    765043.19905  23514329.82105    589108.50046  23514330.73946
  -3576211.13307  20615382.72807  -2775932.46448  20615381.64248
  -4593171.06607  19376248.92307  -3568033.78148  19376246.77848
   -547067.43806  20937887.81306   -426748.13446  20937888.84146
  -8099638.07407  22172425.90707  -6294222.82347  22172423.98947
   -693720.31607  20475950.23507   -541752.89548  20475948.87648
 04  2 13  3 14 29.9970000  0  6  3  8 11 27 28 31
    772838.52005  23515812.73505    595182.75346  23515814.43846
  -3603068.60207  20610271.68107  -2796860.36148  20610271.56048
  -4631595.15607  19368936.96207  -3597974.60948  19368934.91148
   -546774.07406  20937944.50906   -426519.56646  20937943.93146
  -8178089.81306  22157496.79006  -6355354.01847  22157495.46647
   -698048.23807  20475126.92307   -545125.31348  20475125.48548
 04  2 13  3 14 44.9970000  0  6  3  8 11 27 28 31
    780638.10505  23517297.43805    601260.33746  23517298.38846
  -3629769.35507  20605190.60307  -2817666.15648  20605190.54048
  -4669892.47307  19361649.38407  -3627816.66748  19361647.17348
   -546382.15606  20938019.01706   -426214.23446  20938018.58346
  -8256514.10906  22142572.85306  -6416463.82747  22142572.24747
   -702331.38707  20474312.04007   -548462.83548  20474309.99348
 04  2 13  3 14 59.9970000  0  6  3  8 11 27 28 31
    788440.90205  23518781.84505    607340.32546  23518783.63846
  -3656314.25807  20600139.28207  -2838350.50448  20600138.64948
  -4708063.87907  19354385.74307  -3657560.60148  19354383.06048
   -545892.92206  20938112.10306   -425833.05046  20938111.38846
  -8334911.55506  22127654.45406  -6477552.72747  22127653.54847
   -706571.49207  20473505.29807   -551766.83148  20473503.52848
 04  2 13  3 15 14.9970000  0  6  3  8 11 27 28 31
    796246.55105  23520267.23505    613422.64446  23520269.13046
  -3682703.88707  20595117.74307  -2858913.88448  20595116.81048
  -4746109.60507  19347146.00107  -3687206.63648  19347143.19248
   -545306.88706  20938223.25906   -425376.45746  20938222.65346
  -8413282.06606  22112741.11806  -6538620.63447  22112739.99747
   -710768.65207  20472706.43107   -555037.39448  20472703.99348
 04  2 13  3 15 29.9970000  0  6  3  8 11 27 28 31
    804055.86305  23521753.57105    619507.73446  23521756.75546
  -3708937.47707  20590125.88407  -2879355.64848  20590125.18848
  -4784029.07807  19339930.12607  -3716754.26048  19339927.40348
   -544623.80506  20938353.46206   -424844.27146  20938353.38846
  -8491624.72706  22097832.98506  -6599666.83647  22097831.72847
   -714922.46107  20471916.06307   -558274.13848  20471914.07548
 04  2 13  3 15 44.9970000  0  6  3  8 11 27 28 31
    811869.07805  23523240.57905    625595.95246  23523243.36846
  -3735014.98807  20585163.09507  -2899675.80948  20585162.93548
  -4821822.05107  19332738.61807  -3746203.32448  19332735.46248
   -543843.72706  20938502.13406   -424236.42346  20938501.53246
  -8569939.07006  22082930.21206  -6660691.00747  22082928.88447
   -719032.60507  20471133.93807   -561476.86248  20471131.76348
 04  2 13  3 15 59.9970000  0  6  3  8 11 27 28 31
    819686.13305  23524728.18105    631687.08246  23524730.73546
  -3760936.32407  20580230.54007  -2919874.26548  20580230.20048
  -4859488.58607  19325571.14207  -3775553.86648  19325567.93848
   -542966.88306  20938669.45406   -423553.24646  20938668.29046
  -8648224.72306  22068033.11806  -6721692.78347  22068031.60647
   -723099.06307  20470360.18107   -564645.54948  20470357.98148
 04  2 13  3 16 14.9970000  0  6  3  8 11 27 28 31
    827506.15206  23526216.38406    637780.52846  23526218.69646
  -3786702.82807  20575327.30607  -2939952.08748  20575327.01348
  -4897029.79707  19318426.30607  -3804806.75748  19318423.69648
   -541994.71506  20938854.03206   -422795.76246  20938853.07546
  -8726482.47706  22053141.16506  -6782672.85547  22053140.27847
   -727123.07407  20469594.14907   -567781.16448  20469592.31348
 04  2 13  3 16 29.9970000  0  6  3  8 11 27 28 31
    835329.40606  23527704.90706    643876.59246  23527707.51346
  -3812314.09407  20570453.72807  -2959908.94448  20570452.94648
  -4934445.27707  19311306.56307  -3833961.65948  19311303.41948
   -540927.03506  20939057.03206   -421963.86346  20939056.69646
  -8804711.61306  22038255.11806  -6843630.60347  22038253.58747
   -731104.10507  20468836.86007   -570883.29848  20468835.23148
 04  2 13  3 16 44.9970000  0  6  3  8 11 27 28 31
    843156.29706  23529194.55606    649975.41046  23529197.41946
  -3837769.80107  20565609.30607  -2979744.56948  20565608.74748
  -4971734.54707  19304210.62607  -3863018.21348  19304207.85348
   -539763.87506  20939278.97006   -421057.49746  20939278.52446
  -8882911.42606  22023373.61806  -6904565.48547  22023371.73947
   -735042.06307  20468087.41507   -573951.85448  20468085.55248
 04  2 13  3 16 59.9970000  0  6  3  8 11 27 28 31
    850986.29306  23530685.04806    656076.62546  23530687.00546
  -3863070.54707  20560794.93807  -2999459.46248  20560793.95448
  -5008898.25807  19297138.77407  -3891976.93848  19297136.04048
   -538505.98005  20939517.77405   -420077.36746  20939518.09946
  -8961082.13306  22008498.23506  -6965477.74147  22008496.98947
   -738937.36307  20467346.04807   -576987.18048  20467345.03248
 04  2 13  3 17 14.9970000  0  6  3  8 11 27 28 31
    858819.45705  23532175.22005    662180.31246  23532177.76746
  -3888216.30107  20556009.82907  -3019053.58148  20556009.35348
  -5045936.36307  19290090.79807  -3920837.79748  19290087.47448
   -537153.67605  20939775.28205   -419023.61446  20939775.88446
  -9039223.39106  21993628.23506  -7026367.00547  21993627.92747
   -742790.04307  20466612.93107   -579989.29448  20466611.44648
 04  2 13  3 17 29.9970000  0  6  3  8 11 27 28 31
    866656.59406  23533666.60306    668287.16746  23533669.19646
  -3913206.43407  20551254.61807  -3038526.42648  20551253.95848
  -5082848.14107  19283066.68807  -3949600.20948  19283063.62248
   -535706.29705  20940050.08705   -417895.76445  20940051.33745
  -9117334.15606  21978764.08706  -7087232.50247  21978763.77447
   -746599.34807  20465888.26707   -582957.60548  20465887.17748
 04  2 13  3 17 44.9970000  0  6  3  8 11 27 28 31
    874497.16406  23535158.89206    674396.65446  23535162.05646
  -3938041.44907  20546528.51707  -3057878.40248  20546527.81048
  -5119634.03907  19276066.68107  -3978264.53748  19276063.48548
   -534164.86305  20940343.19605   -416694.77745  20940344.05645
  -9195414.71506  21963906.27406  -7148074.47447  21963905.38047
   -750365.75407  20465171.39207   -585892.48348  20465170.23148
